timestamp,lat,lon,altitude_m,ground_speed_mps,air_speed_mps,heading_deg,pitch_deg,roll_deg,yaw_deg,battery_percent,battery_voltage,mode,armed,autonomous,source,target
2026-04-22T10:03:42.141978+00:00,39.92563797856381,32.86928516268757,111.39885694675066,28.524758861359317,39.99138809252557,92.00535228295789,0.41991425525203435,17.988976125422795,92.00535228295789,100,15.794429576991785,GUIDED,True,True,simulation,"{""center_x"": 0, ""center_y"": 0, ""width"": 0, ""height"": 0, ""locked"": false, ""qr_text"": """"}"
2026-04-22T10:03:42.308024+00:00,39.92574282854201,32.86927965300076,112.79086229288473,29.048071688288825,39.96556885120235,94.01070456591576,0.8393141680503933,17.95591800455903,94.01070456591576,100,15.788859153983568,GUIDED,True,True,simulation,"{""center_x"": 0, ""center_y"": 0, ""width"": 0, ""height"": 0, ""locked"": false, ""qr_text"": """"}"
2026-04-22T10:03:42.624219+00:00,39.92584742150649,32.86927047768825,114.169197996922,29.56849643107574,39.92259168778975,96.01605684887365,1.2576860259465898,17.900866129472952,96.01605684887365,100,15.783288730975352,GUIDED,True,True,simulation,"{""center_x"": 0, ""center_y"": 0, ""width"": 0, ""height"": 0, ""locked"": false, ""qr_text"": """"}"
2026-04-22T10:03:42.711987+00:00,39.925951629343935,32.86925764798864,115.52711297128228,30.084598998460997,39.862538850144404,98.02140913183152,1.6745173757308378,17.823887931827468,98.02140913183152,100,15.777718307967135,GUIDED,True,True,simulation,"{""center_x"": 0, ""center_y"": 0, ""width"": 0, ""height"": 0, ""locked"": false, ""qr_text"": """"}"
2026-04-22T10:03:42.929056+00:00,39.92605532441278,32.869241179616715,116.85795614910903,30.594957209445454,39.78552526481772,100.0267614147894,2.0892976511231516,17.725077700288804,100.0267614147894,100,15.772147884958919,GUIDED,True,True,simulation,"{""center_x"": 0, ""center_y"": 0, ""width"": 0, ""height"": 0, ""locked"": false, ""qr_text"": """"}"
2026-04-22T10:03:43.122201+00:00,39.92615837969954,32.86922109274417,118.1552090611914,31.09816471227603,39.69169831711439,102.03211369774729,2.501518798153195,17.60455646503467,102.03211369774729,100,15.766577461950703,GUIDED,True,True,simulation,"{""center_x"": 0, ""center_y"": 0, ""width"": 0, ""height"": 0, ""locked"": false, ""qr_text"": """"}"
2026-04-22T10:03:43.332020+00:00,39.926260668974365,32.869197411974916,119.41251776342317,31.592834859812456,39.581237569032695,104.03746598070516,2.9106758974628653,17.462471849507438,104.03746598070516,100,15.761007038942486,GUIDED,True,True,simulation,"{""center_x"": 0, ""center_y"": 0, ""width"": 0, ""height"": 0, ""locked"": false, ""qr_text"": """"}"
2026-04-22T10:03:43.532725+00:00,39.92636206694569,32.86917016631493,120.62372395841767,32.0776045305957,39.45435441562641,106.04281826366305,3.316267782769365,17.298997889593878,106.04281826366305,100,15.75543661593427,GUIDED,True,True,simulation,"{""center_x"": 0, ""center_y"": 0, ""width"": 0, ""height"": 0, ""locked"": false, ""qr_text"": """"}"
2026-04-22T10:03:43.744472+00:00,39.926462449413684,32.86913938913674,121.78289515884539,32.5511378850886,39.31129168044603,108.04817054662094,3.717797654731235,17.114334820452957,108.04817054662094,100,15.749866192926053,GUIDED,True,True,simulation,"{""center_x"": 0, ""center_y"": 0, ""width"": 0, ""height"": 0, ""locked"": false, ""qr_text"": """"}"
2026-04-22T10:03:43.940863+00:00,39.926561693422364,32.86910511813854,122.88435374475382,33.01213004673798,39.152323150833425,110.05352282957881,4.114773689465418,16.90870883125282,110.05352282957881,99,15.744295769917837,GUIDED,True,True,simulation,"{""center_x"": 0, ""center_y"": 0, ""width"": 0, ""height"": 0, ""locked"": false, ""qr_text"": """"}"
2026-04-22T10:03:44.141626+00:00,39.92665967741024,32.86906739529802,123.92270477254714,33.45931069771463,38.97775305395935,112.0588751125367,4.5067096409700165,16.682371788117322,112.0588751125367,99,15.738725346909622,GUIDED,True,True,simulation,"{""center_x"": 0, ""center_y"": 0, ""width"": 0, ""height"": 0, ""locked"": false, ""qr_text"": """"}"
2026-04-22T10:03:44.351854+00:00,39.92675628135918,32.86902626682094,124.8928623994172,33.891447579422696,38.78791547460647,114.06422739549458,4.893125436714843,16.43560092562155,114.06422739549458,99,15.733154923901404,GUIDED,True,True,simulation,"{""center_x"": 0, ""center_y"": 0, ""width"": 0, ""height"": 0, ""locked"": false, ""qr_text"": """"}"
2026-04-22T10:03:44.546493+00:00,39.92685138694142,32.868981783084536,125.79007479379902,34.307349888132414,38.58317371581226,116.06957967845247,5.273547765670241,16.1686985072141,116.06957967845247,99,15.727584500893188,GUIDED,True,True,simulation,"{""center_x"": 0, ""center_y"": 0, ""width"": 0, ""height"": 0, ""locked"": false, ""qr_text"": """"}"
2026-04-22T10:03:44.752582+00:00,39.92694487766452,32.86893399857583,126.6099474098394,34.70587155637904,38.363919603595136,118.07493196141036,5.647510658053899,15.881991454982185,118.07493196141036,99,15.722014077884971,GUIDED,True,True,simulation,"{""center_x"": 0, ""center_y"": 0, ""width"": 0, ""height"": 0, ""locked"": false, ""qr_text"": """"}"
2026-04-22T10:03:44.961439+00:00,39.92703663901402,32.86888297182487,127.34846451188034,35.085914411085874,38.1305727370946,120.08028424436823,6.014556056085576,15.575830949212941,120.08028424436823,99,15.716443654876755,GUIDED,True,True,simulation,"{""center_x"": 0, ""center_y"": 0, ""width"": 0, ""height"": 0, ""locked"": false, ""qr_text"": """"}"
2026-04-22T10:03:45.151660+00:00,39.92712655859376,32.86882876533304,128.0020088435301,35.4464311997086,37.88357968556039,122.08563652732612,6.374234375050603,15.250591998241488,122.08563652732612,99,15.71087323186854,GUIDED,True,True,simulation,"{""center_x"": 0, ""center_y"": 0, ""width"": 0, ""height"": 0, ""locked"": false, ""qr_text"": """"}"
2026-04-22T10:03:45.366064+00:00,39.9272145262635,32.86877144549652,128.56737934498335,35.78642847606219,37.62341313372731,124.09098881028399,6.726105053984934,14.906672979112617,124.09098881028399,99,15.705302808860322,GUIDED,True,True,simulation,"{""center_x"": 0, ""center_y"": 0, ""width"": 0, ""height"": 0, ""locked"": false, ""qr_text"": """"}"
2026-04-22T10:03:45.565892+00:00,39.92730043427383,32.86871108252494,129.04180683181033,36.1049693378781,37.350570977211426,126.09634109324188,7.069737095307237,14.54449514961873,126.09634109324188,99,15.699732385852107,GUIDED,True,True,simulation,"{""center_x"": 0, ""center_y"": 0, ""width"": 0, ""height"": 0, ""locked"": false, ""qr_text"": """"}"
2026-04-22T10:03:45.762237+00:00,39.92738417739819,32.868647750355386,129.4229675584209,36.40117600854805,37.06557536965875,128.10169337619976,7.404709592737042,14.164502132311712,128.10169337619976,99,15.694161962843891,GUIDED,True,True,simulation,"{""center_x"": 0, ""center_y"": 0, ""width"": 0, ""height"": 0, ""locked"": false, ""qr_text"": """"}"
2026-04-22T10:03:45.970665+00:00,39.92746565306172,32.868581526561854,129.7089945997692,36.67423225594017,36.768971723469924,130.10704565915765,7.730612246852296,13.767159371120787,130.10704565915765,98,15.688591539835674,GUIDED,True,True,simulation,"{""center_x"": 0, ""center_y"": 0, ""width"": 0, ""height"": 0, ""locked"": false, ""qr_text"": """"}"
2026-04-22T10:03:46.178966+00:00,39.92754476146691,32.86851249226021,129.89848699555162,36.923385641622104,36.46132766601328,132.11239794211554,8.047045867654848,13.3529535612419,132.11239794211554,98,15.683021116827458,GUIDED,True,True,simulation,"{""center_x"": 0, ""center_y"": 0, ""width"": 0, ""height"": 0, ""locked"": false, ""qr_text"": """"}"
2026-04-22T10:03:46.370432+00:00,39.92762140571588,32.868440732008835,129.9905166121096,37.147949594293145,36.14323195332392,134.11775022507342,8.353622863528285,12.922392052996976,134.11775022507342,98,15.67745069381924,GUIDED,True,True,simulation,"{""center_x"": 0, ""center_y"": 0, ""width"": 0, ""height"": 0, ""locked"": false, ""qr_text"": """"}"
2026-04-22T10:03:46.585776+00:00,39.927695491929,32.86836633370507,129.9846326884278,37.34730530171177,35.81529334336754,136.1231025080313,8.649967715989186,12.47600223039319,136.1231025080313,98,15.671880270811025,GUIDED,True,True,simulation,"{""center_x"": 0, ""center_y"": 0, ""width"": 0, ""height"": 0, ""locked"": false, ""qr_text"": """"}"
2026-04-22T10:03:46.787788+00:00,39.92776692935991,32.86828938847752,129.8808640439615,37.52090341590516,35.47813943102554,138.12845479098917,8.935717439650315,12.01433086514354,138.12845479098917,98,15.66630984780281,GUIDED,True,True,simulation,"{""center_x"": 0, ""center_y"": 0, ""width"": 0, ""height"": 0, ""locked"": false, ""qr_text"": """"}"
2026-04-22T10:03:46.982686+00:00,39.927835630506706,32.86820999057449,129.67971893747873,37.66826556696181,35.13241544703073,140.13380707394708,9.21052202683233,11.537943446939845,140.13380707394708,98,15.660739424794592,GUIDED,True,True,simulation,"{""center_x"": 0, ""center_y"": 0, ""width"": 0, ""height"": 0, ""locked"": false, ""qr_text"": """"}"
2026-04-22T10:03:47.184833+00:00,39.92790151121907,32.86812823724846,129.38218257760911,37.788985681235744,34.77878302315243,142.13915935690494,9.47404487627941,11.0474234907986,142.13915935690494,98,15.655169001786376,GUIDED,True,True,simulation,"{""center_x"": 0, ""center_y"": 0, ""width"": 0, ""height"": 0, ""locked"": false, ""qr_text"": """"}"
2026-04-22T10:03:47.395075+00:00,39.927964490801365,32.86804422863705,128.9897122972926,37.882731100330034,34.417918925993824,144.14451163986283,9.72596320545372,10.543371822328039,144.14451163986283,98,15.649598578778159,GUIDED,True,True,simulation,"{""center_x"": 0, ""center_y"": 0, ""width"": 0, ""height"": 0, ""locked"": false, ""qr_text"": """"}"
2026-04-22T10:03:47.591748+00:00,39.928024492111476,32.867958067640295,128.50423041576335,37.94924349777581,34.05051376182505,146.1498639228207,9.96596844590365,10.026405841791902,146.1498639228207,98,15.644028155769943,GUIDED,True,True,simulation,"{""center_x"": 0, ""center_y"": 0, ""width"": 0, ""height"": 0, ""locked"": false, ""qr_text"": """"}"
2026-04-22T10:03:47.799511+00:00,39.92808144165531,32.867869859794645,127.9281148230312,37.988339590881175,33.677270654930425,148.1552162057786,10.193766621221576,9.497158767871312,148.1552162057786,97,15.638457732761728,GUIDED,True,True,simulation,"{""center_x"": 0, ""center_y"": 0, ""width"": 0, ""height"": 0, ""locked"": false, ""qr_text"": """"}"
2026-04-22T10:03:47.994490+00:00,39.92813526967679,32.867779713143676,127.26418733297746,37.99991164578803,33.298903901999296,150.16056848873646,10.409078707128206,8.956278862051079,150.16056848873646,97,15.63288730975351,GUIDED,True,True,simulation,"{""center_x"": 0, ""center_y"": 0, ""width"": 0, ""height"": 0, ""locked"": false, ""qr_text"": """"}"
2026-04-22T10:03:48.198240+00:00,39.928185910243315,32.867687738105765,126.51569986211214,37.98392777434536,32.91613760513559,152.16592077169435,10.611640973242432,8.404428634580428,152.16592077169435,97,15.627316886745295,GUIDED,True,True,simulation,"{""center_x"": 0, ""center_y"": 0, ""width"": 0, ""height"": 0, ""locked"": false, ""qr_text"": """"}"
2026-04-22T10:03:48.403562+00:00,39.92823330132653,32.86759404733883,125.68631850168839,37.940432021980754,32.52970428610217,154.1712730546522,10.80120530611806,7.842284032980814,154.1712730546522,97,15.621746463737077,GUIDED,True,True,simulation,"{""center_x"": 0, ""center_y"": 0, ""width"": 0, ""height"": 0, ""locked"": false, ""qr_text"": """"}"
2026-04-22T10:03:48.602804+00:00,39.92827738487829,32.86749875560235,124.78010556118942,37.869544246328076,32.14034348445204,156.1766253376101,10.97753951315177,7.27053361409471,156.1766253376101,97,15.616176040728861,GUIDED,True,True,simulation,"{""center_x"": 0, ""center_y"": 0, ""width"": 0, ""height"": 0, ""locked"": false, ""qr_text"": """"}"
2026-04-22T10:03:48.817261+00:00,39.92831810690175,32.86740197961678,123.80149967113871,37.77145978694571,31.74880034222921,158.18197762056798,11.14042760699,6.68987770068959,158.18197762056798,97,15.610605617720646,GUIDED,True,True,simulation,"{""center_x"": 0, ""center_y"": 0, ""width"": 0, ""height"": 0, ""locked"": false, ""qr_text"": """"}"
2026-04-22T10:03:49.013434+00:00,39.92835541751752,32.86730383792061,122.75529404269007,37.64644892703563,31.355824177947692,160.18732990352584,11.289670070086466,6.10102752365011,160.18732990352584,97,15.605035194712428,GUIDED,True,True,simulation,"{""center_x"": 0, ""center_y"": 0, ""width"": 0, ""height"": 0, ""locked"": false, ""qr_text"": """"}"
2026-04-22T10:03:49.215479+00:00,39.92838927102477,32.86720445072513,121.64661299048164,37.494856148646306,31.037832947422196,162.19268218648375,11.425084099086188,5.504704350809208,162.19268218648375,97,15.599464771704213,GUIDED,True,True,simulation,"{""center_x"": 0, ""center_y"": 0, ""width"": 0, ""height"": 0, ""locked"": false, ""qr_text"": """"}"
2026-04-22T10:03:49.419559+00:00,39.92841962595718,32.86710393976725,120.48088683374553,37.31709918341223,31.431417669715927,164.1980344694416,11.546503828736762,4.901638603485203,164.1980344694416,97,15.593894348695997,GUIDED,True,True,simulation,"{""center_x"": 0, ""center_y"": 0, ""width"": 0, ""height"": 0, ""locked"": false, ""qr_text"": """"}"
2026-04-22T10:03:49.643809+00:00,39.928446445133766,32.8670024281603,119.26382529860692,37.11366786144547,31.8241767633309,166.20338675239947,11.653780535052535,4.292568961807021,166.20338675239947,97,15.58832392568778,GUIDED,True,True,simulation,"{""center_x"": 0, ""center_y"": 0, ""width"": 0, ""height"": 0, ""locked"": false, ""qr_text"": """"}"
2026-04-22T10:03:49.840110+00:00,39.92846969570437,32.86690004024332,118.0013895518484,36.8851227615515,32.21535858271734,168.20873903535735,11.746782817482895,3.678241459923396,168.20873903535735,96,15.582753502679564,GUIDED,True,True,simulation,"{""center_x"": 0, ""center_y"": 0, ""width"": 0, ""height"": 0, ""locked"": false, ""qr_text"": """"}"
2026-04-22T10:03:50.053585+00:00,39.92848934918997,32.8667969014287,116.69976300311811,36.63209366648874,32.60421450084542,170.21409131831524,11.825396759861523,3.0594085722043425,170.21409131831524,96,15.577183079671347,GUIDED,True,True,simulation,"{""center_x"": 0, ""center_y"": 0, ""width"": 0, ""height"": 0, ""locked"": false, ""qr_text"": """"}"
2026-04-22T10:03:50.242833+00:00,39.92850538151749,32.86669313804859,115.36532101859237,36.35527782752848,32.99000034189564,172.2194436012731,11.889526069939436,2.4368282915541317,172.2194436012731,96,15.571612656663131,GUIDED,True,True,simulation,"{""center_x"": 0, ""center_y"": 0, ""width"": 0, ""height"": 0, ""locked"": false, ""qr_text"": """"}"
2026-04-22T10:03:50.448026+00:00,39.928517773049336,32.86658887720016,114.00459969443543,36.05543804309745,33.371977805430625,174.22479588423099,11.93909219733097,1.811263200964779,174.22479588423099,96,15.566042233654915,GUIDED,True,True,simulation,"{""center_x"": 0, ""center_y"": 0, ""width"": 0, ""height"": 0, ""locked"": false, ""qr_text"": """"}"
2026-04-22T10:03:50.653996+00:00,39.92852650860743,32.866484246589906,112.6242638430037,35.7334005567975,33.749415879322996,176.23014816718887,11.974034429728164,1.1834795394472324,176.23014816718887,96,15.560471810646698,GUIDED,True,True,simulation,"{""center_x"": 0, ""center_y"": 0, ""width"": 0, ""height"": 0, ""locked"": false, ""qr_text"": """"}"
2026-04-22T10:03:50.854711+00:00,39.92853157749182,32.866379374377246,111.23107434859828,35.390052780594715,34.12159223873505,178.23550045014673,11.99430996726575,0.5542462634844022,178.23550045014673,96,15.554901387638482,GUIDED,True,True,simulation,"{""center_x"": 0, ""center_y"": 0, ""width"": 0, ""height"": 0, ""locked"": false, ""qr_text"": """"}"
2026-04-22T10:03:51.069313+00:00,39.92853297349374,32.866274389017526,109.83185505265705,35.02634084945193,34.48779462847312,180.24085273310462,11.999893974945637,-0.07566589484437675,180.24085273310462,96,15.549330964630265,GUIDED,True,True,simulation,"{""center_x"": 0, ""center_y"": 0, ""width"": 0, ""height"": 0, ""locked"": false, ""qr_text"": """"}"
2026-04-22T10:03:51.270417+00:00,39.928530694903266,32.86616941910468,108.43345933058274,34.64326701414314,34.84732222607114,182.2462050160625,11.990779613056686,-0.7054853719137628,182.2462050160625,96,15.54376054162205,GUIDED,True,True,simulation,"{""center_x"": 0, ""center_y"": 0, ""width"": 0, ""height"": 0, ""locked"": false, ""qr_text"": """"}"
2026-04-22T10:03:51.472537+00:00,39.92852474451139,32.86606459321373,107.04273652391366,34.241886879434304,35.199486982994664,184.25155729902036,11.966978045552485,-1.3344407176213675,184.25155729902036,96,15.538190118613834,GUIDED,True,True,simulation,"{""center_x"": 0, ""center_y"": 0, ""width"": 0, ""height"": 0, ""locked"": false, ""qr_text"": """"}"
2026-04-22T10:03:51.675435+00:00,39.928515129606595,32.86596003974328,105.66649839225244,33.82330649524083,35.54361494139871,186.25690958197822,11.928518426376913,-1.961761540317664,186.25690958197822,95,15.532619695605616,GUIDED,True,True,simulation,"{""center_x"": 0, ""center_y"": 0, ""width"": 0, ""height"": 0, ""locked"": false, ""qr_text"": """"}"
2026-04-22T10:03:51.878754+00:00,39.92850186196594,32.86585588675826,104.31148574927079,33.388679308777746,35.879047523919475,188.26226186493614,11.8754478637542,-2.5866794504394224,188.26226186493614,95,15.5270492725974,GUIDED,True,True,simulation,"{""center_x"": 0, ""center_y"": 0, ""width"": 0, ""height"": 0, ""locked"": false, ""qr_text"": """"}"
2026-04-22T10:03:52.071745+00:00,39.928484957840624,32.86575226183305,102.98433544620764,32.93920298610091,36.20514279403149,190.267614147894,11.807831362487246,-3.208429001690838,190.267614147894,95,15.521478849589185,GUIDED,True,True,simulation,"{""center_x"": 0, ""center_y"": 0, ""width"": 0, ""height"": 0, ""locked"": false, ""qr_text"": """"}"
2026-04-22T10:03:52.291737+00:00,39.928464437936086,32.86564929189523,101.69154786457513,32.47611611179807,36.52127668455831,192.27296643085188,11.725751744334863,-3.8262486286195303,192.27296643085188,95,15.515908426580967,GUIDED,True,True,simulation,"{""center_x"": 0, ""center_y"": 0, ""width"": 0, ""height"": 0, ""locked"": false, ""qr_text"": """"}"
2026-04-22T10:03:52.493317+00:00,39.928440327386646,32.86554710307009,100.43945507729319,32.00069477592421,36.826844191985536,194.27831871380977,11.62930954656548,-4.439381579438989,194.27831871380977,95,15.510338003572752,GUIDED,True,True,simulation,"{""center_x"": 0, ""center_y"": 0, ""width"": 0, ""height"": 0, ""locked"": false, ""qr_text"": """"}"
2026-04-22T10:03:52.713244+00:00,39.928412655724706,32.865445820526176,99.2341898341997,31.51424905758606,37.1212605342907,196.28367099676763,11.51862289881156,-5.047076842954882,196.28367099676763,95,15.504767580564534,GUIDED,True,True,simulation,"{""center_x"": 0, ""center_y"": 0, ""width"": 0, ""height"": 0, ""locked"": false, ""qr_text"": """"}"
2026-04-22T10:03:52.898775+00:00,39.9283814568446,32.86534556832192,98.08165552384477,31.018119414865886,37.40396227007403,198.2890232797255,11.39382737837557,-5.648590068459858,198.2890232797255,95,15.499197157556319,GUIDED,True,True,simulation,"{""center_x"": 0, ""center_y"": 0, ""width"": 0, ""height"": 0, ""locked"": false, ""qr_text"": """"}"
2026-04-22T10:03:53.123662+00:00,39.92834676896104,32.865246469253755,96.98749725869669,30.513672991032436,37.67440837684856,200.2943755626834,11.255075844164743,-6.243184477470084,200.2943755626834,95,15.493626734548103,GUIDED,True,True,simulation,"{""center_x"": 0, ""center_y"": 0, ""width"": 0, ""height"": 0, ""locked"": false, ""qr_text"": """"}"
2026-04-22T10:03:53.307131+00:00,39.92830863456236,32.865148644705634,95.95707422538393,30.002299847217728,37.932081286425756,202.29972784564126,11.102538249458025,-6.8301317661867555,202.29972784564126,95,15.488056311539886,GUIDED,True,True,simulation,"{""center_x"": 0, ""center_y"": 0, ""width"": 0, ""height"": 0, ""locked"": false, ""qr_text"": """"}"
2026-04-22T10:03:53.512097+00:00,39.92826710035843,32.8650522145004,94.99543343540167,29.485409131940994,38.176487875415404,204.30508012859912,10.93640143373457,-7.408712997577179,204.30508012859912,95,15.48248588853167,GUIDED,True,True,simulation,"{""center_x"": 0, ""center_y"": 0, ""width"": 0, ""height"": 0, ""locked"": false, ""qr_text"": """"}"
2026-04-22T10:03:53.730955+00:00,39.92822221722346,32.864957296753005,94.1072850048521,28.964425198035077,38.40716040894407,206.31043241155703,10.756868893818726,-7.978219481982738,206.31043241155703,94,15.476915465523453,GUIDED,True,True,simulation,"{""center_x"": 0, ""center_y"": 0, ""width"": 0, ""height"": 0, ""locked"": false, ""qr_text"": """"}"
2026-04-22T10:03:53.969729+00:00,39.928174040133655,32.86486400772581,93.29697908429816,28.440783677675597,38.62365743578604,208.31578469451492,10.564160534621895,-8.537953645175099,208.31578469451492,94,15.471345042515237,GUIDED,True,True,simulation,"{""center_x"": 0, ""center_y"": 0, ""width"": 0, ""height"": 0, ""locked"": false, ""qr_text"": """"}"
2026-04-22T10:03:54.160713+00:00,39.92812262809995,32.8647724616862,92.56848455172826,28.08407247367147,38.82556463319385,210.3211369774728,10.358512399786493,-9.087229882797415,210.3211369774728,94,15.465774619507021,GUIDED,True,True,simulation,"{""center_x"": 0, ""center_y"": 0, ""width"": 0, ""height"": 0, ""locked"": false, ""qr_text"": """"}"
2026-04-22T10:03:54.339959+00:00,39.92806804409564,32.86468277076664,91.9253695729939,28.60869695348237,39.01249559981138,212.3264892604307,10.140176382562014,-9.62537540014393,212.3264892604307,94,15.460204196498804,GUIDED,True,True,simulation,"{""center_x"": 0, ""center_y"": 0, ""width"": 0, ""height"": 0, ""locked"": false, ""qr_text"": """"}"
2026-04-22T10:03:54.553166+00:00,39.92801035497932,32.86459504482729,91.37078412493517,29.131644097631366,39.184092595152265,214.33184154338858,9.909419917267304,-10.151731036249368,214.33184154338858,94,15.454633773490588,GUIDED,True,True,simulation,"{""center_x"": 0, ""center_y"": 0, ""width"": 0, ""height"": 0, ""locked"": false, ""qr_text"": """"}"
2026-04-22T10:03:54.749537+00:00,39.92794963141293,32.864509391321455,90.90744456679568,29.651472864087363,39.34002722422835,216.3371938263465,9.666525651716945,-10.665652071278679,216.3371938263465,94,15.449063350482371,GUIDED,True,True,simulation,"{""center_x"": 0, ""center_y"": 0, ""width"": 0, ""height"": 0, ""locked"": false, ""qr_text"": """"}"
2026-04-22T10:03:54.956200+00:00,39.92788594777525,32.86442591516396,90.53762033549653,30.16675080387379,39.48000106601792,218.34254610930435,9.411791101013044,-11.166509016228225,218.34254610930435,94,15.443492927474155,GUIDED,True,True,simulation,"{""center_x"": 0, ""center_y"": 0, ""width"": 0, ""height"": 0, ""locked"": false, ""qr_text"": """"}"
2026-04-22T10:03:55.166185+00:00,39.92781938207078,32.86434471860267,90.26312282993527,30.67605800834932,39.60374624457113,220.34789839226224,9.145528283126431,-11.653688383971087,220.34789839226224,94,15.43792250446594,GUIDED,True,True,simulation,"{""center_x"": 0, ""center_y"": 0, ""width"": 0, ""height"": 0, ""locked"": false, ""qr_text"": """"}"
2026-04-22T10:03:55.368107+00:00,39.92775001583418,32.86426590109322,90.0852965387551,31.177991021932254,39.7110259416595,222.35325067522015,8.868063336713654,-12.126593440702091,222.35325067522015,94,15.432352081457722,GUIDED,True,True,simulation,"{""center_x"": 0, ""center_y"": 0, ""width"": 0, ""height"": 0, ""locked"": false, ""qr_text"": """"}"
2026-04-22T10:03:55.593566+00:00,39.92767793403041,32.86418955917719,90.00501245504012,31.671166709486542,39.80163484998856,224.35860295817804,8.579736121637916,-12.584644936862086,224.35860295817804,93,15.426781658449507,GUIDED,True,True,simulation,"{""center_x"": 0, ""center_y"": 0, ""width"": 0, ""height"": 0, ""locked"": false, ""qr_text"": """"}"
2026-04-22T10:03:55.781874+00:00,39.92760322495067,32.86411578636389,90.02266381019172,32.15422606771246,39.87539956610609,226.36395524113593,8.280899802683237,-13.027281816646234,226.36395524113593,93,15.42121123544129,GUIDED,True,True,simulation,"{""center_x"": 0, ""center_y"": 0, ""width"": 0, ""height"": 0, ""locked"": false, ""qr_text"": """"}"
2026-04-22T10:03:55.983400+00:00,39.92752598010424,32.8640446730158,90.1381641478813,32.625837970039164,39.93217892225431,228.3693075240938,7.971920416971761,-13.453961905227203,228.3693075240938,93,15.415640812433073,GUIDED,True,True,simulation,"{""center_x"": 0, ""center_y"": 0, ""width"": 0, ""height"": 0, ""locked"": false, ""qr_text"": """"}"
2026-04-22T10:03:56.190426+00:00,39.9274462941064,32.86397630623786,90.35094774751335,33.0847028346997,39.97186425653064,230.3746598070517,7.653176425614044,-13.864162572851534,230.3746598070517,93,15.410070389424858,GUIDED,True,True,simulation,"{""center_x"": 0, ""center_y"": 0, ""width"": 0, ""height"": 0, ""locked"": false, ""qr_text"": """"}"
2026-04-22T10:03:56.393611+00:00,39.927364264562534,32.86391076977083,90.65997239512468,33.52955620588057,39.9943796208402,232.3800120900096,7.325058250141527,-14.257381374995743,232.3800120900096,93,15.40449996641664,GUIDED,True,True,simulation,"{""center_x"": 0, ""center_y"": 0, ""width"": 0, ""height"": 0, ""locked"": false, ""qr_text"": """"}"
2026-04-22T10:03:56.597314+00:00,39.92727999194857,32.8638481438887,91.06372448814783,33.95917223807764,39.999681926242076,234.38536437296747,6.987967794288979,-14.633136667798025,234.38536437296747,93,15.398929543408425,GUIDED,True,True,simulation,"{""center_x"": 0, ""center_y"": 0, ""width"": 0, ""height"": 0, ""locked"": false, ""qr_text"": """"}"
2026-04-22T10:03:56.794837+00:00,39.92719357948793,32.863788505300334,91.56022644903568,34.37236707405688,39.98776102541104,236.39071665592536,6.642317951712674,-14.99096819801176,236.39071665592536,93,15.393359120400207,GUIDED,True,True,simulation,"{""center_x"": 0, ""center_y"": 0, ""width"": 0, ""height"": 0, ""locked"": false, ""qr_text"": """"}"
2026-04-22T10:03:56.998293+00:00,39.927105133025066,32.86373192705554,92.14704641143533,34.76800210711137,39.95863973205708,238.39606893888327,6.288532100247304,-15.33043766675819,238.39606893888327,93,15.387788697391992,GUIDED,True,True,simulation,"{""center_x"": 0, ""center_y"": 0, ""width"": 0, ""height"": 0, ""locked"": false, ""qr_text"": """"}"
2026-04-22T10:03:57.206215+00:00,39.92701476089583,32.863678478455604,92.82131013146818,35.14498711862537,39.912373777265515,240.40142122184116,5.927043583321061,-15.651129266387727,240.40142122184116,93,15.382218274383776,GUIDED,True,True,simulation,"{""center_x"": 0, ""center_y"": 0, ""width"": 0, ""height"": 0, ""locked"": false, ""qr_text"": """"}"
2026-04-22T10:03:57.408126+00:00,39.92692257379479,32.863628224968366,93.57971506577508,35.5022832822992,39.849051702841194,242.40677350479905,5.558295179164132,-15.952650189792344,242.40677350479905,93,15.376647851375559,GUIDED,True,True,simulation,"{""center_x"": 0, ""center_y"": 0, ""width"": 0, ""height"": 0, ""locked"": false, ""qr_text"": """"}"
2026-04-22T10:03:57.615578+00:00,39.92682868463962,32.86358122814808,94.41854654737197,35.838906026756625,39.76879469186103,244.41212578775693,5.182738558460739,-16.23463111154515,244.41212578775693,92,15.371077428367343,GUIDED,True,True,simulation,"{""center_x"": 0, ""center_y"": 0, ""width"": 0, ""height"": 0, ""locked"": false, ""qr_text"": """"}"
2026-04-22T10:03:57.816796+00:00,39.92673320843278,32.86353754555995,95.3336959800869,36.1539277486465,39.671756336758946,246.41747807071482,4.8008337311090195,-16.496726640277856,246.41747807071482,92,15.365507005359126,GUIDED,True,True,simulation,"{""center_x"": 0, ""center_y"": 0, ""width"": 0, ""height"": 0, ""locked"": false, ""qr_text"": """"}"
2026-04-22T10:03:58.011922+00:00,39.926636262120695,32.86349723070971,96.32068096246202,36.446480368762295,39.55812234538732,248.4228303536727,4.413048482766438,-16.738615741742024,248.4228303536727,92,15.35993658235091,GUIDED,True,True,simulation,"{""center_x"": 0, ""center_y"": 0, ""width"": 0, ""height"": 0, ""locked"": false, ""qr_text"": """"}"
2026-04-22T10:03:58.211740+00:00,39.92653796445047,32.86346033297799,97.37466724255363,36.7157577241359,39.42811018561716,250.4281826366306,4.019857801870841,-16.960002132035857,250.4281826366306,92,15.354366159342694,GUIDED,True,True,simulation,"{""center_x"": 0, ""center_y"": 0, ""width"": 0, ""height"": 0, ""locked"": false, ""qr_text"": """"}"
2026-04-22T10:03:58.424427+00:00,39.92643843582446,32.86342689755991,98.49049239609572,36.96101778951396,39.281968669157486,252.43353491958848,3.6217432978390183,-17.160614640514943,252.43353491958848,92,15.348795736334477,GUIDED,True,True,simulation,"{""center_x"": 0, ""center_y"": 0, ""width"": 0, ""height"": 0, ""locked"": false, ""qr_text"": """"}"
2026-04-22T10:03:58.624729+00:00,39.926337798152794,32.86339696540968,99.66269111205149,37.18158472209533,39.119977475390044,254.4388872025464,3.2191926111553943,-17.340207541942387,254.4388872025464,92,15.343225313326261,GUIDED,True,True,simulation,"{""center_x"": 0, ""center_y"": 0, ""width"": 0, ""height"": 0, ""locked"": false, ""qr_text"": """"}"
2026-04-22T10:03:58.823020+00:00,39.92623617470402,32.86337057319042,100.88552196170397,37.37685072389492,38.94244661613093,256.4442394855042,2.81269881607341,-17.49856085747149,256.4442394855042,92,15.337654890318044,GUIDED,True,True,simulation,"{""center_x"": 0, ""center_y"": 0, ""width"": 0, ""height"": 0, ""locked"": false, ""qr_text"": """"}"
2026-04-22T10:03:59.035249+00:00,39.92613368995417,32.86334775322932,102.152995520171,37.54627771660218,38.74971584234321,258.44959176846214,2.40275981666122,-17.635480624092324,258.44959176846214,92,15.332084467309828,GUIDED,True,True,simulation,"{""center_x"": 0, ""center_y"": 0, ""width"": 0, ""height"": 0, ""locked"": false, ""qr_text"": """"}"
2026-04-22T10:03:59.236545+00:00,39.92603046943423,32.86332853347796,103.45890370260527,37.68939882431877,38.54215399393606,260.45494405142006,1.9898777369314722,-17.75079913221219,260.45494405142006,92,15.32651404430161,GUIDED,True,True,simulation,"{""center_x"": 0, ""center_y"": 0, ""width"": 0, ""height"": 0, ""locked"": false, ""qr_text"": """"}"
2026-04-22T10:03:59.439093+00:00,39.92592663957645,32.863312937478156,104.79685017139073,37.80581966008981,38.320158293894764,262.4602963343779,1.5745583058021793,-17.84437513107887,262.4602963343779,91,15.320943621293395,GUIDED,True,True,simulation,"{""center_x"": 0, ""center_y"": 0, ""width"": 0, ""height"": 0, ""locked"": false, ""qr_text"": """"}"
2026-04-22T10:03:59.641100+00:00,39.92582232755941,32.86330098433304,106.160281665401,37.89521941268318,38.084153588092306,264.46564861733583,1.1573102376420348,-17.916094001795148,264.46564861733583,91,15.31537319828518,GUIDED,True,True,simulation,"{""center_x"": 0, ""center_y"": 0, ""width"": 0, ""height"": 0, ""locked"": false, ""qr_text"": """"}"
2026-04-22T10:03:59.870060+00:00,39.92571766115229,32.863292688683714,107.5425200978691,37.957351730622456,37.83459153223755,266.4710009002937,0.7386446091589258,-17.965867897712624,266.4710009002937,91,15.309802775276962,GUIDED,True,True,simulation,"{""center_x"": 0, ""center_y"": 0, ""width"": 0, ""height"": 0, ""locked"": false, ""qr_text"": """"}"
2026-04-22T10:04:00.041610+00:00,39.92561276855835,32.863288060691325,108.93679526565299,37.99204540103719,37.57194972751587,268.4763531832516,0.31907423339487273,-17.993635852032874,268.4763531832516,91,15.304232352268746,GUIDED,True,True,simulation,"{""center_x"": 0, ""center_y"": 0, ""width"": 0, ""height"": 0, ""locked"": false, ""qr_text"": """"}"
2026-04-22T10:04:00.253189+00:00,39.9255077782579,32.863287106024586,110.33627800968712,37.99920482146001,37.29673080657642,270.4817054662095,-0.1008869684058207,-17.999363852484155,270.4817054662095,91,15.298661929260529,GUIDED,True,True,simulation,"{""center_x"": 0, ""center_y"": 0, ""width"": 0, ""height"": 0, ""locked"": false, ""qr_text"": """"}"
2026-04-22T10:04:00.447582+00:00,39.92540281885093,32.86328982585284,111.73411366420015,37.97881026327044,37.00946147161527,272.4870577491674,-0.5207245962858275,-17.983044882982185,272.4870577491674,91,15.293091506252313,GUIDED,True,True,simulation,"{""center_x"": 0, ""center_y"": 0, ""width"": 0, ""height"": 0, ""locked"": false, ""qr_text"": """"}"
2026-04-22T10:04:00.657195+00:00,39.92529801889959,32.86329621684463,113.12345563086436,37.93091792605935,36.71069148639529,274.49241003212524,-0.9399244016504207,-17.94469893222396,274.49241003212524,91,15.287521083244098,GUIDED,True,True,simulation,"{""center_x"": 0, ""center_y"": 0, ""width"": 0, ""height"": 0, ""locked"": false, ""qr_text"": """"}"
2026-04-22T10:04:00.854632+00:00,39.92519350677071,32.8633062711718,114.49749891343082,37.85565978276446,36.40099262413179,276.49776231508315,-1.3579729171576975,-17.884372969204122,276.49776231508315,91,15.28195066023588,GUIDED,True,True,simulation,"{""center_x"": 0, ""center_y"": 0, ""width"": 0, ""height"": 0, ""locked"": false, ""qr_text"": """"}"
2026-04-22T10:04:01.057761+00:00,39.92508941047859,32.86331997651905,115.84951344859753,37.75324321600349,36.08095757325737,278.50311459804107,-1.7743580856518646,-17.802140885683784,278.50311459804107,91,15.276380237227665,GUIDED,True,True,simulation,"{""center_x"": 0, ""center_y"": 0, ""width"": 0, ""height"": 0, ""locked"": false, ""qr_text"": """"}"
2026-04-22T10:04:01.265265+00:00,39.924985857528156,32.863337316099056,117.17287706985614,37.623950446607026,35.7511988031602,280.508466880999,-2.1885698873692228,-17.698103405682385,280.508466880999,91,15.270809814219447,GUIDED,True,True,simulation,"{""center_x"": 0, ""center_y"": 0, ""width"": 0, ""height"": 0, ""locked"": false, ""qr_text"": """"}"
2026-04-22T10:04:01.463704+00:00,39.92488297475884,32.86335826867298,118.46110794286008,37.468137755926065,35.41234739206626,282.51381916395684,-2.600100964648602,-17.572387962103363,282.51381916395684,90,15.265239391211232,GUIDED,True,True,simulation,"{""center_x"": 0, ""center_y"": 0, ""width"": 0, ""height"": 0, ""locked"": false, ""qr_text"": """"}"
2026-04-22T10:04:01.671318+00:00,39.924780888189154,32.86338280857656,119.70789631344594,37.28623450405707,35.06505181930887,284.5191714469147,-3.0084472433810534,-17.425148540644756,284.5191714469147,90,15.259668968203016,GUIDED,True,True,simulation,"{""center_x"": 0, ""center_y"": 0, ""width"": 0, ""height"": 0, ""locked"": false, ""qr_text"": """"}"
2026-04-22T10:04:01.869935+00:00,39.92467972286239,32.86341090575147,120.90713541280617,37.07874194668996,34.709976724296666,286.5245237298726,-3.413108550437596,-17.256565491186013,286.5245237298726,90,15.254098545194799,GUIDED,True,True,simulation,"{""center_x"": 0, ""center_y"": 0, ""width"": 0, ""height"": 0, ""locked"": false, ""qr_text"": """"}"
2026-04-22T10:04:02.072430+00:00,39.92457960269342,32.86344252578218,122.0529513684396,36.84623185383945,34.34780163455514,288.52987601283047,-3.8135892263187596,-17.066845306881916,288.52987601283047,90,15.248528122186583,GUIDED,True,True,simulation,"{""center_x"": 0, ""center_y"": 0, ""width"": 0, ""height"": 0, ""locked"": false, ""qr_text"": """"}"
2026-04-22T10:04:02.274700+00:00,39.92448065031693,32.863477629938124,123.13973197437592,36.58934493426588,33.97921966527594,290.5352282957884,-4.209398732275488,-16.856220371234308,290.5352282957884,90,15.242957699178366,GUIDED,True,True,simulation,"{""center_x"": 0, ""center_y"": 0, ""width"": 0, ""height"": 0, ""locked"": false, ""qr_text"": """"}"
2026-04-22T10:04:02.481420+00:00,39.92438298693721,32.86351617522109,124.1621541797578,36.3087890699273,33.60493619286266,292.5405805787463,-4.6000522511577655,-16.624948673451335,292.5405805787463,90,15.23738727617015,GUIDED,True,True,simulation,"{""center_x"": 0, ""center_y"": 0, ""width"": 0, ""height"": 0, ""locked"": false, ""qr_text"": """"}"
2026-04-22T10:04:02.690745+00:00,39.92428673217969,32.86355811441793,125.1152101611412,36.00533736532785,33.22566750501166,294.54593286170416,-4.985071281255004,-16.373313492442964,294.54593286170416,90,15.231816853161934,GUIDED,True,True,simulation,"{""center_x"": 0, ""center_y"": 0, ""width"": 0, ""height"": 0, ""locked"": false, ""qr_text"": """"}"
2026-04-22T10:04:02.891699+00:00,39.9241920039444,32.86360339615836,125.99423185081208,35.679826017137955,32.84213942991133,296.5512851446621,-5.3639842224007985,-16.10162304983971,296.5512851446621,90,15.226246430153717,GUIDED,True,True,simulation,"{""center_x"": 0, ""center_y"": 0, ""width"": 0, ""height"": 0, ""locked"": false, ""qr_text"": """"}"
2026-04-22T10:04:03.089690+00:00,39.92409891826159,32.863651964977926,126.79491380097971,35.33315200995651,32.45508594718312,298.55663742762,-5.7363269536241654,-15.81021013245969,298.55663742762,90,15.220676007145501,GUIDED,True,True,simulation,"{""center_x"": 0, ""center_y"": 0, ""width"": 0, ""height"": 0, ""locked"": false, ""qr_text"": """"}"
2026-04-22T10:04:03.291451+00:00,39.92400758914959,32.863703761385885,127.51333427185774,34.96627064456492,32.065247783222816,300.5619897105778,-6.101643401639688,-15.499431684686392,300.5619897105778,89,15.215105584137284,GUIDED,True,True,simulation,"{""center_x"": 0, ""center_y"": 0, ""width"": 0, ""height"": 0, ""locked"": false, ""qr_text"": """"}"
2026-04-22T10:04:03.493251+00:00,39.92391812847513,32.863758721938126,128.14597444034376,34.58019290548404,31.673370993629955,302.5673419935357,-6.459486099480266,-15.169668371256432,302.5673419935357,89,15.209535161129068,GUIDED,True,True,simulation,"{""center_x"": 0, ""center_y"": 0, ""width"": 0, ""height"": 0, ""locked"": false, ""qr_text"": """"}"
2026-04-22T10:04:03.700499+00:00,39.92383064581635,32.86381677931483,128.689735635213,34.17598267508804,31.280205535438633,304.5726942764936,-6.80941673458819,-14.821324110992858,304.5726942764936,89,15.203964738120852,GUIDED,True,True,simulation,"{""center_x"": 0, ""center_y"": 0, ""width"": 0, ""height"": 0, ""locked"": false, ""qr_text"": """"}"
2026-04-22T10:04:03.900564+00:00,39.92374524832858,32.863877862402994,129.1419545144084,33.7547538019521,31.113496168118253,306.57804655945154,-7.151006685693223,-14.454825582055093,306.57804655945154,89,15.198394315112635,GUIDED,True,True,simulation,"{""center_x"": 0, ""center_y"": 0, ""width"": 0, ""height"": 0, ""locked"": false, ""qr_text"": """"}"
2026-04-22T10:04:04.104422+00:00,39.923662040613046,32.863941896383444,129.50041611008876,33.31766703151233,31.506980667564353,308.5833988424094,-7.48383754782005,-14.070621699311557,308.5833988424094,89,15.19282389210442,GUIDED,True,True,simulation,"{""center_x"": 0, ""center_y"": 0, ""width"": 0, ""height"": 0, ""locked"": false, ""qr_text"": """"}"
2026-04-22T10:04:04.332653+00:00,39.92358112458881,32.86400880282259,129.76336467754004,32.86592680749596,31.899494929099255,310.58875112536725,-7.807501644782061,-13.669183064475074,310.58875112536725,89,15.187253469096202,GUIDED,True,True,simulation,"{""center_x"": 0, ""center_y"": 0, ""width"": 0, ""height"": 0, ""locked"": false, ""qr_text"": """"}"
2026-04-22T10:04:04.532756+00:00,39.923502599367865,32.86407849976839,129.92951229481204,32.40077795293574,32.29028777572235,312.59410340832517,-8.121602528533694,-13.25100138967463,312.59410340832517,89,15.181683046087986,GUIDED,True,True,simulation,"{""center_x"": 0, ""center_y"": 0, ""width"": 0, ""height"": 0, ""locked"": false, ""qr_text"": """"}"
2026-04-22T10:04:04.713098+00:00,39.92342656113381,32.864150901850806,129.9980451709595,31.92350223991445,32.67861132480324,314.5994556912831,-8.425755464769718,-12.816588895169504,314.5994556912831,89,15.17611262307977,GUIDED,True,True,simulation,"{""center_x"": 0, ""center_y"": 0, ""width"": 0, ""height"": 0, ""locked"": false, ""qr_text"": """"}"
2026-04-22T10:04:04.936304+00:00,39.923353103023956,32.864225920386346,129.96862763198982,31.435414857491974,33.06372241934753,316.60480797424094,-8.719587904176652,-12.366477681943493,316.60480797424094,89,15.170542200071553,GUIDED,True,True,simulation,"{""center_x"": 0, ""center_y"": 0, ""width"": 0, ""height"": 0, ""locked"": false, ""qr_text"": """"}"
2026-04-22T10:04:05.145589+00:00,39.923282315015314,32.86430346348668,129.8414037649939,30.93786078754802,33.44488405021885,318.61016025719886,-9.002739938759078,-11.901219079947753,318.61016025719886,89,15.164971777063338,GUIDED,True,True,simulation,"{""center_x"": 0, ""center_y"": 0, ""width"": 0, ""height"": 0, ""locked"": false, ""qr_text"": """"}"
2026-04-22T10:04:05.353899+00:00,39.92321428381433,32.8643834361712,129.61699671240794,30.432211098527173,33.82136676659546,320.6155125401567,-9.274864742681938,-11.42138297279055,320.6155125401567,88,15.15940135405512,GUIDED,True,True,simulation,"{""center_x"": 0, ""center_y"": 0, ""width"": 0, ""height"": 0, ""locked"": false, ""qr_text"": """"}"
2026-04-22T10:04:05.542322+00:00,39.92314909275073,32.86446574048338,129.29650561986176,29.919859167299446,34.19245007196199,322.62086482311463,-9.535628997088814,-10.92755709970109,322.62086482311463,88,15.153830931046905,GUIDED,True,True,simulation,"{""center_x"": 0, ""center_y"": 0, ""width"": 0, ""height"": 0, ""locked"": false, ""qr_text"": """"}"
2026-04-22T10:04:05.752048+00:00,39.923086821675405,32.86455027561073,128.8815002525643,29.40221683954728,34.55742380296486,324.62621710607254,-9.784713298375836,-10.420346335622483,324.62621710607254,88,15.148260508038689,GUIDED,True,True,simulation,"{""center_x"": 0, ""center_y"": 0, ""width"": 0, ""height"": 0, ""locked"": false, ""qr_text"": """"}"
2026-04-22T10:04:05.953782+00:00,39.92302754686265,32.86463693800828,128.37401330659438,28.880710539259624,34.915589488492515,326.63156938903035,-10.021812549421169,-9.900371950315547,326.63156938903035,88,15.142690085030472,GUIDED,True,True,simulation,"{""center_x"": 0, ""center_y"": 0, ""width"": 0, ""height"": 0, ""locked"": false, ""qr_text"": """"}"
2026-04-22T10:04:06.151868+00:00,39.92297134091668,32.86472562152544,127.77653045275629,28.35677733805377,35.26626168637955,328.63692167198826,-10.246636333290825,-9.368270847381059,328.63692167198826,88,15.137119662022256,GUIDED,True,True,simulation,"{""center_x"": 0, ""center_y"": 0, ""width"": 0, ""height"": 0, ""locked"": false, ""qr_text"": """"}"
2026-04-22T10:04:06.364353+00:00,39.92291827268276,32.864816217535974,127.09197816176547,28.168139004843614,35.608769295176636,330.6422739549462,-10.4589092689631,-8.824694784132477,330.6422739549462,88,15.131549239014038,GUIDED,True,True,simulation,"{""center_x"": 0, ""center_y"": 0, ""width"": 0, ""height"": 0, ""locked"": false, ""qr_text"": """"}"
2026-04-22T10:04:06.566018+00:00,39.922868407162845,32.86490861507112,126.3237093703964,28.692592021043914,35.9424568384757,332.6476262379041,-10.658371348635882,-8.270309573274744,332.6476262379041,88,15.125978816005823,GUIDED,True,True,simulation,"{""center_x"": 0, ""center_y"": 0, ""width"": 0, ""height"": 0, ""locked"": false, ""qr_text"": """"}"
2026-04-22T10:04:06.766695+00:00,39.92282180543595,32.865002700955436,125.47548705880007,29.21513651890944,36.26668571933269,334.65297852086195,-10.844778256203705,-7.70579426736696,334.65297852086195,88,15.120408392997607,GUIDED,True,True,simulation,"{""center_x"": 0, ""center_y"": 0, ""width"": 0, ""height"": 0, ""locked"": false, ""qr_text"": """"}"
2026-04-22T10:04:06.975389+00:00,39.92277852458337,32.86509835994549,124.55146581942898,29.73433256594802,36.58083544238706,336.6583308038198,-11.017901666514417,-7.1318403270679305,336.6583308038198,88,15.11483796998939,GUIDED,True,True,simulation,"{""center_x"": 0, ""center_y"": 0, ""width"": 0, ""height"": 0, ""locked"": false, ""qr_text"": """"}"
2026-04-22T10:04:07.177017+00:00,39.92273861761874,32.86519547487097,123.5561715078455,30.24874945671546,36.88430480133924,338.6636830867777,-11.177529525038945,-6.5491507741833175,338.6636830867777,87,15.109267546981174,GUIDED,True,True,simulation,"{""center_x"": 0, ""center_y"": 0, ""width"": 0, ""height"": 0, ""locked"": false, ""qr_text"": """"}"
2026-04-22T10:04:07.372674+00:00,39.9227021334231,32.86529392677824,122.4944790750836,30.756969655291734,37.17651302951353,340.66903536973564,-11.323466307611582,-5.958439330551837,340.66903536973564,87,15.103697123972957,GUIDED,True,True,simulation,"{""center_x"": 0, ""center_y"": 0, ""width"": 0, ""height"": 0, ""locked"": false, ""qr_text"": """"}"
2026-04-22T10:04:07.572516+00:00,39.92266911668502,32.86539359507603,121.37158869014112,31.257592701467058,37.45690091130453,342.6743876526935,-11.455533259922625,-5.360429543825258,342.6743876526935,87,15.098126700964741,GUIDED,True,True,simulation,"{""center_x"": 0, ""center_y"": 0, ""width"": 0, ""height"": 0, ""locked"": false, ""qr_text"": """"}"
2026-04-22T10:04:07.784529+00:00,39.92263960784588,32.86549435768313,120.19300026955473,31.749239069873813,37.72493185238004,344.6797399356514,-11.57356861647007,-4.755853901213003,344.6797399356514,87,15.092556277956525,GUIDED,True,True,simulation,"{""center_x"": 0, ""center_y"": 0, ""width"": 0, ""height"": 0, ""locked"": false, ""qr_text"": """"}"
2026-04-22T10:04:07.990356+00:00,39.922613643050326,32.865596091177956,118.96448653881141,32.23055397143009,37.980092906592304,346.6850922186093,-11.677427798702109,-4.145452932276916,346.6850922186093,87,15.086985854948308,GUIDED,True,True,simulation,"{""center_x"": 0, ""center_y"": 0, ""width"": 0, ""height"": 0, ""locked"": false, ""qr_text"": """"}"
2026-04-22T10:04:08.181796+00:00,39.922591254101974,32.86569867094969,117.69206475754204,32.70021108661947,38.22189575763246,348.6904445015672,-11.766983592107783,-3.529974301875148,348.6904445015672,87,15.081415431940092,GUIDED,True,True,simulation,"{""center_x"": 0, ""center_y"": 0, ""width"": 0, ""height"": 0, ""locked"": false, ""qr_text"": """"}"
2026-04-22T10:04:08.385703+00:00,39.92257246842449,32.86580197135094,116.3819672469867,33.15691622031963,38.44987765354935,350.6957967845251,-11.842126302038857,-2.9101718943661994,350.6957967845251,87,15.075845008931875,GUIDED,True,True,simulation,"{""center_x"": 0, ""center_y"": 0, ""width"": 0, ""height"": 0, ""locked"": false, ""qr_text"": """"}"
2026-04-22T10:04:08.587965+00:00,39.92255730902799,32.86590586585164,115.04061086408848,33.59941086810838,38.66360229234441,352.70114906748296,-11.902763888072027,-2.28680489019485,352.70114906748296,87,15.07027458592366,GUIDED,True,True,simulation,"{""center_x"": 0, ""center_y"": 0, ""width"": 0, ""height"": 0, ""locked"": false, ""qr_text"": """"}"
2026-04-22T10:04:08.797798+00:00,39.92254579448081,32.866010227194,113.6745655717313,34.02647568421983,38.862660656947796,354.7065013504409,-11.948822076746954,-1.6606368359910506,354.7065013504409,87,15.064704162915444,GUIDED,True,True,simulation,"{""center_x"": 0, ""center_y"": 0, ""width"": 0, ""height"": 0, ""locked"": false, ""qr_text"": """"}"
2026-04-22T10:04:09.005484+00:00,39.92253793888687,32.866114927548445,112.29052225906518,34.43693384159431,39.046671797977744,356.71185363339873,-11.980244452541946,-1.0324347093207789,356.71185363339873,87,15.059133739907226,GUIDED,True,True,simulation,"{""center_x"": 0, ""center_y"": 0, ""width"": 0, ""height"": 0, ""locked"": false, ""qr_text"": """"}"
2026-04-22T10:04:09.197214+00:00,39.92253375186826,32.866219838670126,110.89525996953445,34.82965427476295,39.21528356278518,358.7172059163566,-11.99699252697593,-0.40296797923442873,358.7172059163566,86,15.05356331689901,GUIDED,True,True,simulation,"{""center_x"": 0, ""center_y"": 0, ""width"": 0, ""height"": 0, ""locked"": false, ""qr_text"": """"}"
2026-04-22T10:04:09.401281+00:00,39.92253323855356,32.86632483205604,109.49561269712643,35.20355479663094,39.36817326938841,0.7225581993145056,-11.999045785752019,0.22699233623655593,0.7225581993145056,86,15.047992893890793,GUIDED,True,True,simulation,"{""center_x"": 0, ""center_y"": 0, ""width"": 0, ""height"": 0, ""locked"": false, ""qr_text"": """"}"
2026-04-22T10:04:09.607635+00:00,39.92253639957153,32.86642977910241,108.09843591347239,35.55760508057064,39.50504832400808,2.7279104822724207,-11.986401713884964,0.8566746144803563,2.7279104822724207,86,15.042422470882578,GUIDED,True,True,simulation,"{""center_x"": 0, ""center_y"": 0, ""width"": 0, ""height"": 0, ""locked"": false, ""qr_text"": """"}"
2026-04-22T10:04:09.810749+00:00,39.922543231050305,32.86653455126224,106.7105729897509,35.89082949960715,39.62564678102066,4.733262765230279,-11.959075798781702,1.485307573445989,4.733262765230279,86,15.036852047874362,GUIDED,True,True,simulation,"{""center_x"": 0, ""center_y"": 0, ""width"": 0, ""height"": 0, ""locked"": false, ""qr_text"": """"}"
2026-04-22T10:04:10.023792+00:00,39.92255372462218,32.866639020202726,105.33882167785933,36.202309814872564,39.72973784425873,6.738615048188194,-11.91710151127121,2.112121216367373,6.738615048188194,86,15.031281624866144,GUIDED,True,True,simulation,"{""center_x"": 0, ""center_y"": 0, ""width"": 0, ""height"": 0, ""locked"": false, ""qr_text"": """"}"
2026-04-22T10:04:10.212602+00:00,39.92256786743385,32.86674305796249,103.98990081502843,36.49118770592058,39.81712230869884,8.743967331146052,-11.860530264606933,2.73634777491308,8.743967331146052,86,15.025711201857929,GUIDED,True,True,simulation,"{""center_x"": 0, ""center_y"": 0, ""width"": 0, ""height"": 0, ""locked"": false, ""qr_text"": """"}"
2026-04-22T10:04:10.414536+00:00,39.922585642162126,32.866846537108266,102.67041741496107,36.7566671359289,39.887632941691564,10.749319614103968,-11.789431351491967,3.3572226496065363,10.749319614103968,86,15.020140778849711,GUIDED,True,True,simulation,"{""center_x"": 0, ""center_y"": 0, ""width"": 0, ""height"": 0, ""locked"": false, ""qr_text"": """"}"
2026-04-22T10:04:10.624675+00:00,39.9226070270352,32.86694933089106,101.38683430668235,36.99801654527183,39.94113480300416,12.754671897061883,-11.703891859204177,3.9739853463647687,12.754671897061883,86,15.014570355841496,GUIDED,True,True,simulation,"{""center_x"": 0, ""center_y"": 0, ""width"": 0, ""height"": 0, ""locked"": false, ""qr_text"": """"}"
2026-04-22T10:04:10.829243+00:00,39.92263199585927,32.86705131340133,100.14543847960643,37.21457086741839,39.97752550306345,14.760024180019741,-11.60401656292516,4.585880408008559,14.760024180019741,86,15.008999932833278,GUIDED,True,True,simulation,"{""center_x"": 0, ""center_y"": 0, ""width"": 0, ""height"": 0, ""locked"": false, ""qr_text"": """"}"
2026-04-22T10:04:11.031067+00:00,39.92266051805065,32.86715235972326,98.95231028986547,37.40573336160095,39.99673539890457,16.765376462977656,-11.489927797403753,5.192158339603021,16.765376462977656,85,15.003429509825063,GUIDED,True,True,simulation,"{""center_x"": 0, ""center_y"": 0, ""width"": 0, ""height"": 0, ""locked"": false, ""qr_text"": """"}"
2026-04-22T10:04:11.232436+00:00,39.922692558673226,32.867252346087746,97.81329367872844,37.57097725720422,39.998727727450735,18.770728745935514,-11.361765307111266,5.792076526495174,18.770728745935514,85,14.997859086816847,GUIDED,True,True,simulation,"{""center_x"": 0, ""center_y"": 0, ""width"": 0, ""height"": 0, ""locked"": false, ""qr_text"": """"}"
2026-04-22T10:04:11.434876+00:00,39.922728078481235,32.867351150023985,96.73396754897972,37.70984720534331,39.9834986758688,20.77608102889343,-11.219686075071973,6.384900143924033,20.77608102889343,85,14.99228866380863,GUIDED,True,True,simulation,"{""center_x"": 0, ""center_y"": 0, ""width"": 0, ""height"": 0, ""locked"": false, ""qr_text"": """"}"
2026-04-22T10:04:11.639964+00:00,39.922767033967354,32.867448650509516,95.71961843945607,37.82196053363083,39.95107738886615,22.781433311851288,-11.063864130578546,6.969903057089047,22.781433311851288,85,14.986718240800414,GUIDED,True,True,simulation,"{""center_x"": 0, ""center_y"": 0, ""width"": 0, ""height"": 0, ""locked"": false, ""qr_text"": """"}"
2026-04-22T10:04:11.844300+00:00,39.922809377415994,32.86754472811843,94.7752146315821,37.90700830067545,39.90152591291474,24.786785594809203,-10.894490336027925,7.546368710574434,24.786785594809203,85,14.981147817792197,GUIDED,True,True,simulation,"{""center_x"": 0, ""center_y"": 0, ""width"": 0, ""height"": 0, ""locked"": false, ""qr_text"": """"}"
2026-04-22T10:04:12.046323+00:00,39.922855056961716,32.867639265167675,93.90538181473039,37.96475614740602,39.83493907750927,26.79213787776706,-10.711772153138753,8.113591006039965,26.79213787776706,85,14.975577394783981,GUIDED,True,True,simulation,"{""center_x"": 0, ""center_y"": 0, ""width"": 0, ""height"": 0, ""locked"": false, ""qr_text"": """"}"
2026-04-22T10:04:12.255152+00:00,39.922904016652794,32.86773214586118,93.11438042959725,37.995044942875424,39.75144431368652,28.797490160724976,-10.515933388836714,8.670875167103123,28.797490160724976,85,14.970006971775765,GUIDED,True,True,simulation,"{""center_x"": 0, ""center_y"": 0, ""width"": 0, ""height"": 0, ""locked"": false, ""qr_text"": """"}"
2026-04-22T10:04:12.451122+00:00,39.92295619651972,32.86782325643173,92.40608480056638,37.99779122276449,39.6512014101533,30.802842443682835,-10.307213921119033,9.21753859035331,30.802842443682835,85,14.964436548767548,GUIDED,True,True,simulation,"{""center_x"": 0, ""center_y"": 0, ""width"": 0, ""height"": 0, ""locked"": false, ""qr_text"": """"}"
2026-04-22T10:04:12.651509+00:00,39.923011532648694,32.86791248528024,91.78396415926997,37.97298741937772,39.53440220748965,32.80819472664075,-10.085869405233925,9.752911681455654,32.80819472664075,85,14.958866125759332,GUIDED,True,True,simulation,"{""center_x"": 0, ""center_y"": 0, ""width"": 0, ""height"": 0, ""locked"": false, ""qr_text"": """"}"
2026-04-22T10:04:12.870145+00:00,39.92306995725987,32.867999723112554,91.25106565229397,37.92070188249696,39.40127023101256,34.813547009598665,-9.852170960534885,10.276338675320336,34.813547009598665,85,14.953295702751115,GUIDED,True,True,simulation,"{""center_x"": 0, ""center_y"": 0, ""width"": 0, ""height"": 0, ""locked"": false, ""qr_text"": """"}"
2026-04-22T10:04:13.071614+00:00,39.9231313987904,32.86808486307322,90.8099994162556,37.841078691035534,39.25206026300276,36.81889929255652,-9.606404838393388,10.787178439332838,36.81889929255652,84,14.9477252797429,GUIDED,True,True,simulation,"{""center_x"": 0, ""center_y"": 0, ""width"": 0, ""height"": 0, ""locked"": false, ""qr_text"": """"}"
2026-04-22T10:04:13.276506+00:00,39.92319578198211,32.86816780087644,90.46292579335551,37.734337256012,39.087057855113315,38.82425157551444,-9.348872071576745,11.284805258661216,38.82425157551444,84,14.942154856734684,GUIDED,True,True,simulation,"{""center_x"": 0, ""center_y"": 0, ""width"": 0, ""height"": 0, ""locked"": false, ""qr_text"": """"}"
2026-04-22T10:04:13.480215+00:00,39.92326302797362,32.86824843493378,90.21154475002291,37.600771715937384,38.906578781893074,40.8296038584723,-9.079888105520611,11.768609602678515,40.8296038584723,84,14.936584433726466,GUIDED,True,True,simulation,"{""center_x"": 0, ""center_y"": 0, ""width"": 0, ""height"": 0, ""locked"": false, ""qr_text"": """"}"
2026-04-22T10:04:13.682200+00:00,39.92333305439701,32.868326666478595,90.05708755048066,37.44075012628213,38.71096843647083,42.83495614143021,-8.799782411947778,12.23799887156159,42.83495614143021,84,14.93101401071825,GUIDED,True,True,simulation,"{""center_x"": 0, ""center_y"": 0, ""width"": 0, ""height"": 0, ""locked"": false, ""qr_text"": """"}"
2026-04-22T10:04:13.884940+00:00,39.92340577547868,32.86840239968703,90.0003107260139,37.254713445256186,38.500601169556774,44.84030842438807,-8.508898085306496,12.69239812215177,44.84030842438807,84,14.925443587710033,GUIDED,True,True,simulation,"{""center_x"": 0, ""center_y"": 0, ""width"": 0, ""height"": 0, ""locked"": false, ""qr_text"": """"}"
2026-04-22T10:04:14.090935+00:00,39.92348110214437,32.86847554179536,90.0414923694801,37.04317431869704,38.27587957302609,46.845660707345985,-8.207591422522698,13.131250772188329,46.845660707345985,84,14.919873164701817,GUIDED,True,True,simulation,"{""center_x"": 0, ""center_y"": 0, ""width"": 0, ""height"": 0, ""locked"": false, ""qr_text"": """"}"
2026-04-22T10:04:14.298767+00:00,39.92355894212836,32.86854600321367,90.18043077321042,36.80671566741421,38.03723370945585,48.85101299030384,-7.896231486580808,13.554019282052174,48.85101299030384,84,14.914302741693602,GUIDED,True,True,simulation,"{""center_x"": 0, ""center_y"": 0, ""width"": 0, ""height"": 0, ""locked"": false, ""qr_text"": """"}"
2026-04-22T10:04:14.511117+00:00,39.923639200086384,32.86861369763553,90.41644541697376,36.545989080882705,37.78512028908965,50.85636527326176,-7.575199654467736,13.960185813184642,50.85636527326176,84,14.908732318685384,GUIDED,True,True,simulation,"{""center_x"": 0, ""center_y"": 0, ""width"": 0, ""height"": 0, ""locked"": false, ""qr_text"": """"}"
2026-04-22T10:04:14.698875+00:00,39.923721777712494,32.868678542143726,90.74838030116454,36.26171302171202,37.52002179580511,52.86171755621962,-7.244889150033757,14.349252862375,52.86171755621962,84,14.903161895677169,GUIDED,True,True,simulation,"{""center_x"": 0, ""center_y"": 0, ""width"": 0, ""height"": 0, ""locked"": false, ""qr_text"": """"}"
2026-04-22T10:04:14.906677+00:00,39.923806573859416,32.86874045731186,91.17460960888815,35.95467084583839,37.242445563756846,54.86706983917753,-6.905704562342474,14.72074387113964,54.86706983917753,83,14.897591472668951,GUIDED,True,True,simulation,"{""center_x"": 0, ""center_y"": 0, ""width"": 0, ""height"": 0, ""locked"": false, ""qr_text"": """"}"
2026-04-22T10:04:15.104540+00:00,39.92389348466248,32.86879936730158,91.69304566921123,35.625708643895834,36.952922806462084,56.87242212213539,-6.558061350099804,15.074203809446654,56.87242212213539,83,14.892021049660736,GUIDED,True,True,simulation,"{""center_x"": 0, ""center_y"": 0, ""width"": 0, ""height"": 0, ""locked"": false, ""qr_text"": """"}"
2026-04-22T10:04:15.305999+00:00,39.92398240366681,32.86885519995551,92.30114918257297,35.27573290971445,36.65200760018695,58.87777440509336,-6.202385332769008,15.409199733070718,58.87777440509336,83,14.88645062665252,GUIDED,True,True,simulation,"{""center_x"": 0, ""center_y"": 0, ""width"": 0, ""height"": 0, ""locked"": false, ""qr_text"": """"}"
2026-04-22T10:04:15.511176+00:00,39.924073221957755,32.86890788688565,92.99594165827295,34.90570804237065,36.34027582357901,60.88312668805122,-5.839112168995108,15.725321313895618,60.88312668805122,83,14.880880203644303,GUIDED,True,True,simulation,"{""center_x"": 0, ""center_y"": 0, ""width"": 0, ""height"": 0, ""locked"": false, ""qr_text"": """"}"
2026-04-22T10:04:15.733651+00:00,39.92416582829426,32.86895736355709,93.77402000311716,34.516653688672626,36.018324055575384,62.88847897100908,-5.468686822977514,16.02218134251489,62.88847897100908,83,14.875309780636087,GUIDED,True,True,simulation,"{""center_x"": 0, ""center_y"": 0, ""width"": 0, ""height"": 0, ""locked"": false, ""qr_text"": """"}"
2026-04-22T10:04:15.937634+00:00,39.92426010924514,32.86900356936709,94.63157318976667,34.109641933404355,35.68676843369546,64.89383125396694,-5.091563019444529,16.299416202514923,64.89383125396694,83,14.86973935762787,GUIDED,True,True,simulation,"{""center_x"": 0, ""center_y"": 0, ""width"": 0, ""height"": 0, ""locked"": false, ""qr_text"": """"}"
2026-04-22T10:04:16.135067+00:00,39.924355949328024,32.86904644771931,95.5644009231477,33.68579434507052,35.346243474903304,66.89918353692491,-4.708202687897289,16.556686315859604,66.89918353692491,83,14.864168934619654,GUIDED,True,True,simulation,"{""center_x"": 0, ""center_y"": 0, ""width"": 0, ""height"": 0, ""locked"": false, ""qr_text"": """"}"
2026-04-22T10:04:16.329283+00:00,39.9244532311508,32.869085946093136,96.56793421349465,33.24627888528332,34.9974008612962,68.90453581988277,-4.319075396803889,16.79367655883093,68.90453581988277,83,14.858598511611438,GUIDED,True,True,simulation,"{""center_x"": 0, ""center_y"": 0, ""width"": 0, ""height"": 0, ""locked"": false, ""qr_text"": """"}"
